{"type":"Topology","arcs":[],"objects":{"GWLA_universities":{"type":"GeometryCollection","geometries":[{"type":"Point","coordinates":[-111.93297900784556,33.42044083945924],"properties":{"id":null,"name":"Arizona State University"}},{"type":"Point","coordinates":[-97.118291909398,31.547912729660187],"properties":{"id":null,"name":"Baylor University"}},{"type":"Point","coordinates":[-111.6493826432652,40.25074151232877],"properties":{"id":null,"name":"Brigham Young University"}},{"type":"Point","coordinates":[-117.71951046947119,34.0976257666878],"properties":{"id":null,"name":"The Claremont Colleges"}},{"type":"Point","coordinates":[-105.08673197328694,40.57462478498528],"properties":{"id":null,"name":"Colorado State University"}},{"type":"Point","coordinates":[-93.64748270664818,42.0276580354516],"properties":{"id":null,"name":"Iowa State University"}},{"type":"Point","coordinates":[-96.58112565928211,39.188822116463285],"properties":{"id":null,"name":"Kansas State University"}},{"type":"Point","coordinates":[-97.07250619135148,36.12722709209795],"properties":{"id":null,"name":"Oklahoma State University"}},{"type":"Point","coordinates":[-123.28315127415047,44.56345961140197],"properties":{"id":null,"name":"Oregon State University"}},{"type":"Point","coordinates":[-95.40272623167768,29.71674840290479],"properties":{"id":null,"name":"Rice University"}},{"type":"Point","coordinates":[-89.2199524840863,37.714939342303914],"properties":{"id":null,"name":"Southern Illinois University"}},{"type":"Point","coordinates":[-96.78082039491665,32.8406070901069],"properties":{"id":null,"name":"Southern Methodist University"}},{"type":"Point","coordinates":[-96.34534319883274,30.611486439661128],"properties":{"id":null,"name":"Texas A&M University"}},{"type":"Point","coordinates":[-97.94271458403995,29.888737068170443],"properties":{"id":null,"name":"Texas State University"}},{"type":"Point","coordinates":[-101.87699927583391,33.584004271938774],"properties":{"id":null,"name":"Texas Tech University"}},{"type":"Point","coordinates":[-110.95084738076739,32.23107213005363],"properties":{"id":null,"name":"University of Arizona"}},{"type":"Point","coordinates":[-94.1748810260811,36.06553553515905],"properties":{"id":null,"name":"University of Arkansas"}},{"type":"Point","coordinates":[-105.26868590880272,40.00897191492257],"properties":{"id":null,"name":"University of Colorado at Boulder"}},{"type":"Point","coordinates":[-75.75349625721924,39.68079662657667],"properties":{"id":null,"name":"University of Delaware"}},{"type":"Point","coordinates":[-104.96245312252022,39.67736969507875],"properties":{"id":null,"name":"University of Denver"}},{"type":"Point","coordinates":[-157.81716898563388,21.299903577708946],"properties":{"id":null,"name":"University of Hawai'i at Manoa"}},{"type":"Point","coordinates":[-95.34444502235151,29.72235654912419],"properties":{"id":null,"name":"University of Houston"}},{"type":"Point","coordinates":[-87.64908739288039,41.871926319459675],"properties":{"id":null,"name":"University of Illinois at Chicago"}},{"type":"Point","coordinates":[-95.25005277572701,38.95669037719729],"properties":{"id":null,"name":"University of Kansas"}},{"type":"Point","coordinates":[-92.32734337796265,38.94445272690089],"properties":{"id":null,"name":"University of Missouri"}},{"type":"Point","coordinates":[-115.14266508033086,36.10767940773721],"properties":{"id":null,"name":"University of Nevada, Las Vegas"}},{"type":"Point","coordinates":[-106.62076334019834,35.08473034564074],"properties":{"id":null,"name":"University of New Mexico"}},{"type":"Point","coordinates":[-97.44261518305507,35.20612009916244],"properties":{"id":null,"name":"University of Oklahoma"}},{"type":"Point","coordinates":[-123.0720334214873,44.04368849185249],"properties":{"id":null,"name":"University of Oregon"}},{"type":"Point","coordinates":[-118.2862835739241,34.0214731770885],"properties":{"id":null,"name":"University of Southern California"}},{"type":"Point","coordinates":[-97.73765797714667,30.285206310937184],"properties":{"id":null,"name":"University of Texas at Austin"}},{"type":"Point","coordinates":[-111.83837694886692,40.76281719715424],"properties":{"id":null,"name":"University of Utah"}},{"type":"Point","coordinates":[-122.307220767744,47.6540671396394],"properties":{"id":null,"name":"University of Washington"}},{"type":"Point","coordinates":[-105.58091000340345,41.31362902444831],"properties":{"id":null,"name":"University of Wyoming"}},{"type":"Point","coordinates":[-111.80944615655758,41.743616176205855],"properties":{"id":null,"name":"Utah State University"}},{"type":"Point","coordinates":[-117.16012742235958,46.73118074107167],"properties":{"id":null,"name":"Washington State University"}},{"type":"Point","coordinates":[-90.30978778599834,38.648732029811946],"properties":{"id":null,"name":"Washington University in St. Louis"}},{"type":"Point","coordinates":[-83.05673791034431,42.354089640800105],"properties":{"id":null,"name":"Wayne State University"}}]}}}